{
  "type": "FeatureCollection",
  "features": [
    {
      "type": "Feature",
      "properties": { "name": "Wat Phra Chetuphon (Wat Pho)", "district": "Phra Nakhon" },
      "geometry": { "type": "Point", "coordinates": [100.4939, 13.7467] }
    },
    {
      "type": "Feature",
      "properties": { "name": "Chatuchak Weekend Market", "district": "Chatuchak" },
      "geometry": { "type": "Point", "coordinates": [100.5502, 13.8007] }
    },
    {
      "type": "Feature",
      "properties": { "name": "Siam Paragon", "district": "Pathum Wan" },
      "geometry": { "type": "Point", "coordinates": [100.5346, 13.7460] }
    },
    {
      "type": "Feature",
      "properties": { "name": "Temple of Dawn (Wat Arun)", "district": "Thonburi" },
      "geometry": { "type": "Point", "coordinates": [100.4889, 13.7437] }
    },
    {
      "type": "Feature",
      "properties": { "name": "The Grand Palace", "district": "Phra Nakhon" },
      "geometry": { "type": "Point", "coordinates": [100.4924, 13.7516] }
    },
    {
      "type": "Feature",
      "properties": { "name": "Jim Thompson House", "district": "Ratchathewi" },
      "geometry": { "type": "Point", "coordinates": [100.5282, 13.7514] }
    },
    {
      "type": "Feature",
      "properties": { "name": "Temple of the Emerald Buddha (Wat Phra Kaew)", "district": "Phra Nakhon" },
      "geometry": { "type": "Point", "coordinates": [100.4923, 13.7519] }
    },
    {
      "type": "Feature",
      "properties": { "name": "MBK Center", "district": "Pathum Wan" },
      "geometry": { "type": "Point", "coordinates": [100.5293, 13.7463] }
    },
    {
      "type": "Feature",
      "properties": { "name": "Central World", "district": "Pathum Wan" },
      "geometry": { "type": "Point", "coordinates": [100.5383, 13.7467] }
    },
    {
      "type": "Feature",
      "properties": { "name": "Terminal 21", "district": "Watthana" },
      "geometry": { "type": "Point", "coordinates": [100.5615, 13.7375] }
    },
    {
      "type": "Feature",
      "properties": { "name": "Lumpini Park", "district": "Pathum Wan" },
      "geometry": { "type": "Point", "coordinates": [100.5411, 13.7304] }
    },
    {
      "type": "Feature",
      "properties": { "name": "ICONSIAM", "district": "Khlong San" },
      "geometry": { "type": "Point", "coordinates": [100.5114, 13.7279] }
    },
    {
      "type": "Feature",
      "properties": { "name": "Chinatown (Yaowarat Road)", "district": "Samphanthawong" },
      "geometry": { "type": "Point", "coordinates": [100.5078, 13.7395] }
    },
    {
      "type": "Feature",
      "properties": { "name": "Khaosan Road", "district": "Phra Nakhon" },
      "geometry": { "type": "Point", "coordinates": [100.4974, 13.7586] }
    },
    {
      "type": "Feature",
      "properties": { "name": "The Platinum Fashion Mall", "district": "Ratchathewi" },
      "geometry": { "type": "Point", "coordinates": [100.5373, 13.7506] }
    }
  ]
}
